{"type": "FeatureCollection", "features": [{"type": "Feature", "geometry": {"type": "Point", "coordinates": [70.1375104650001, 31.713726473000058]}, "properties": {"OID_": 0, "Name": "Warkai Tubewell 1970", "Tehsil": "Darazanda", "District": "D.I Khan", "NC": "Darazanda", "Feature": "Tube Well - Non-Functional"}}, {"type": "Feature", "geometry": {"type": "Point", "coordinates": [70.13556841600013, 31.71069101400008]}, "properties": {"OID_": 0, "Name": "Bakezai Tube well 2000", "Tehsil": "Darazanda", "District": "D.I Khan", "NC": "Darazanda", "Feature": "Tube Well - Non-Functional"}}, {"type": "Feature", "geometry": {"type": "Point", "coordinates": [70.13682395000012, 31.721385490000042]}, "properties": {"OID_": 0, "Name": "Possible two springs (khanano cheena, attal khan cheena)", "Tehsil": "Darazanda", "District": "D.I Khan", "NC": "Darazanda", "Feature": "Possible Spring"}}, {"type": "Feature", "geometry": {"type": "Point", "coordinates": [70.10628632100014, 31.70688875200006]}, "properties": {"OID_": 0, "Name": "PHED gravity scheme from spring 2009", "Tehsil": "Darazanda", "District": "D.I Khan", "NC": "Darazanda", "Feature": "Spring Water Scheme"}}, {"type": "Feature", "geometry": {"type": "Point", "coordinates": [70.135867000188, 31.708559999885754]}, "properties": {"OID_": 0, "Name": "Dug Well New Abadi akmal Darazinda", "Tehsil": "Darazanda", "District": "D.I Khan", "NC": "Darazanda", "Feature": "Tube Well - Functional"}}, {"type": "Feature", "geometry": {"type": "Point", "coordinates": [70.13116600044812, 31.703431000356215]}, "properties": {"OID_": 0, "Name": "Dug Well Zari Sar", "Tehsil": "Darazanda", "District": "D.I Khan", "NC": "Darazanda", "Feature": "Tube Well - Functional"}}, {"type": "Feature", "geometry": {"type": "Point", "coordinates": [70.13810500040016, 31.715433000149545]}, "properties": {"OID_": 0, "Name": "WSS Darazinda", "Tehsil": "Darazanda", "District": "D.I Khan", "NC": "Darazanda", "Feature": "Tube Well - Functional"}}, {"type": "Feature", "geometry": {"type": "Point", "coordinates": [70.12112800015674, 31.692037000155658]}, "properties": {"OID_": 0, "Name": "Dugwell Zoor Shar New Abadi", "Tehsil": "Darazanda", "District": "D.I Khan", "NC": "Darazanda", "Feature": "Tube Well - Functional"}}, {"type": "Feature", "geometry": {"type": "Point", "coordinates": [70.13693100029356, 31.700226000383342]}, "properties": {"OID_": 0, "Name": "Dug Well Rafiq Abad Darazinda", "Tehsil": "Darazanda", "District": "D.I Khan", "NC": "Darazanda", "Feature": "Tube Well - Functional"}}, {"type": "Feature", "geometry": {"type": "Point", "coordinates": [70.13955299958687, 31.7091110002267]}, "properties": {"OID_": 0, "Name": "Dug Well Abdul Wahab Korona", "Tehsil": "Darazanda", "District": "D.I Khan", "NC": "Darazanda", "Feature": "Tube Well - Functional"}}, {"type": "Feature", "geometry": {"type": "Point", "coordinates": [70.1386670002789, 31.707681999832626]}, "properties": {"OID_": 0, "Name": "DWSS Firdos Mohalah  New koroona Darazinda Oba khel area", "Tehsil": "Darazanda", "District": "D.I Khan", "NC": "Darazanda", "Feature": "Tube Well - Functional"}}, {"type": "Feature", "geometry": {"type": "Point", "coordinates": [70.13713299975963, 31.70227999964513]}, "properties": {"OID_": 0, "Name": "WSS Mirzaie Muhalla", "Tehsil": "Darazanda", "District": "D.I Khan", "NC": "Darazanda", "Feature": "Tube Well - Functional"}}, {"type": "Feature", "geometry": {"type": "Point", "coordinates": [70.13701600042236, 31.70281700010396]}, "properties": {"OID_": 0, "Name": "DWSS Izat Gul", "Tehsil": "Darazanda", "District": "D.I Khan", "NC": "Darazanda", "Feature": "Tube Well - Functional"}}, {"type": "Feature", "geometry": {"type": "Point", "coordinates": [70.13578499998627, 31.70679700029821]}, "properties": {"OID_": 0, "Name": "Dug Well Rafiq Abad Darazinda Bazzar", "Tehsil": "Darazanda", "District": "D.I Khan", "NC": "Darazanda", "Feature": "Tube Well - Functional"}}, {"type": "Feature", "geometry": {"type": "Point", "coordinates": [70.13654000004902, 31.708224000418795]}, "properties": {"OID_": 0, "Name": "Dugwell Sardar Dedar Khan", "Tehsil": "Darazanda", "District": "D.I Khan", "NC": "Darazanda", "Feature": "Tube Well - Non-Functional"}}, {"type": "Feature", "geometry": {"type": "Point", "coordinates": [70.13285000038937, 31.70068599956365]}, "properties": {"OID_": 0, "Name": "DWSS College Source Abdullah Kot", "Tehsil": "Darazanda", "District": "D.I Khan", "NC": "Darazanda", "Feature": "Tube Well - Functional"}}]}