{"type":"FeatureCollection", "features": [
{"type":"Feature","geometry":{"type":"Point","coordinates":[70.46821625000007,31.924538444000063,0,-1.7976931348623157e+308]},"properties":{"OID_":0,"Name":"Solar Tube well Hathala road","District":"D.I Khan","NC":"Kulachi","Tehsil":"Kulachi","Feature":"Tube Well - Functional"}},
{"type":"Feature","geometry":{"type":"Point","coordinates":[70.46474283100008,31.922085546000062,0,-1.7976931348623157e+308]},"properties":{"OID_":0,"Name":"Tube well Qasimabad","District":"D.I Khan","NC":"Kulachi","Tehsil":"Kulachi","Feature":"Tube Well - Functional"}},
{"type":"Feature","geometry":{"type":"Point","coordinates":[70.46167409800006,31.931929079000042,0,-1.7976931348623157e+308]},"properties":{"OID_":0,"Name":"Mallah Shakhi Tube well","District":"D.I Khan","NC":"Kulachi","Tehsil":"Kulachi","Feature":"Water Filteration Plant - Non-Functional"}},
{"type":"Feature","geometry":{"type":"Point","coordinates":[70.45248704900007,31.92610221600006,0,-1.7976931348623157e+308]},"properties":{"OID_":0,"Name":"Darbar Tube well","District":"D.I Khan","NC":"Kulachi","Tehsil":"Kulachi","Feature":"Tube Well - Functional"}},
{"type":"Feature","geometry":{"type":"Point","coordinates":[70.46535921200007,31.922303061000036,0,-1.7976931348623157e+308]},"properties":{"OID_":0,"Name":"Kachari Tube well Qasimabad","District":"D.I Khan","NC":"Kulachi","Tehsil":"Kulachi","Feature":"Tube Well - Functional"}},
{"type":"Feature","geometry":{"type":"Point","coordinates":[70.45133018300004,31.923205151000047,0,-1.7976931348623157e+308]},"properties":{"OID_":0,"Name":"Luni Taal Tube well number1","District":"D.I Khan","NC":"Kulachi","Tehsil":"Kulachi","Feature":"Tube Well - Functional"}},
{"type":"Feature","geometry":{"type":"Point","coordinates":[70.45367079000005,31.925242354000034,0,-1.7976931348623157e+308]},"properties":{"OID_":0,"Name":"TMA tube well 1","District":"D.I Khan","NC":"Kulachi","Tehsil":"Kulachi","Feature":"Tube Well - Functional"}},
{"type":"Feature","geometry":{"type":"Point","coordinates":[70.45371937400006,31.92520181100008,0,-1.7976931348623157e+308]},"properties":{"OID_":0,"Name":"Tube well Number 2","District":"D.I Khan","NC":"Kulachi","Tehsil":"Kulachi","Feature":"Tube Well - Functional"}},
{"type":"Feature","geometry":{"type":"Point","coordinates":[70.45413137700007,31.933126810000033,0,-1.7976931348623157e+308]},"properties":{"OID_":0,"Name":"Mallah Yaqoonzai / Kamal Khel tube well","District":"D.I Khan","NC":"Kulachi","Tehsil":"Kulachi","Feature":"Tube Well - Functional"}},
{"type":"Feature","geometry":{"type":"Point","coordinates":[70.46112551100003,31.93030292900005,0,-1.7976931348623157e+308]},"properties":{"OID_":0,"Name":"Mallah Ranazai Tube well","District":"D.I Khan","NC":"Kulachi","Tehsil":"Kulachi","Feature":"Tube Well - Functional"}},
{"type":"Feature","geometry":{"type":"Point","coordinates":[70.46305763300006,31.93099539600007,0,-1.7976931348623157e+308]},"properties":{"OID_":0,"Name":"Haroonabad Tube well","District":"D.I Khan","NC":"Kulachi","Tehsil":"Kulachi","Feature":"Tube Well - Functional"}},
{"type":"Feature","geometry":{"type":"Point","coordinates":[70.46212303600004,31.933939701000043,0,-1.7976931348623157e+308]},"properties":{"OID_":0,"Name":"Behlol Tube well","District":"D.I Khan","NC":"Kulachi","Tehsil":"Kulachi","Feature":"Tube Well - Functional"}},
{"type":"Feature","geometry":{"type":"Point","coordinates":[70.45403061700006,31.92563091100004,0,-1.7976931348623157e+308]},"properties":{"OID_":0,"Name":"Ibrahim zai Tube well","District":"D.I Khan","NC":"Kulachi","Tehsil":"Kulachi","Feature":"Tube Well - Functional"}},
{"type":"Feature","geometry":{"type":"Point","coordinates":[70.45366861400004,31.92513667000003,0,-1.7976931348623157e+308]},"properties":{"OID_":0,"Name":"OHR for 1 & 2 Functional","District":"D.I Khan","NC":"Kulachi","Tehsil":"Kulachi","Feature":"Over Head Reservoir"}},
{"type":"Feature","geometry":{"type":"Point","coordinates":[70.46183764900007,31.932497983000076,0,-1.7976931348623157e+308]},"properties":{"OID_":0,"Name":"OHR Shakhi gate Non-functional","District":"D.I Khan","NC":"Kulachi","Tehsil":"Kulachi","Feature":"Over Head Reservoir"}}
]}